City,Country,Temperature(F),Latitude,Longitude,Humidity(%),Cloudiness(%),Windspeed(mph)
doha,QA,53.2,25.29,51.53,66.0,0.0,3.36
sur,OM,62.64,22.57,59.53,59.0,0.0,9.91
nikolskoye,RU,23.95,59.7,30.79,85.0,90.0,6.71
nabire,ID,88.93,-3.37,135.48,59.0,100.0,5.35
hobart,AU,71.47,-42.88,147.33,36.0,20.0,17.22
puerto ayora,EC,77.0,-0.74,-90.35,45.0,81.0,4.0
atuona,PF,81.72,-9.8,-139.03,75.0,80.0,11.54
ushuaia,AR,46.4,-54.8,-68.3,93.0,90.0,6.93
lensk,RU,4.71,60.73,114.93,94.0,24.0,6.44
jamestown,US,30.96,42.1,-79.24,74.0,90.0,9.17
louisbourg,GL,-11.9,77.48,-69.36,67.0,48.0,3.2
qaanaaq,RU,13.17,65.82,87.98,91.0,100.0,15.5
chupei,PF,80.13,-23.12,-134.97,75.0,71.0,7.4
turukhansk,ES,64.4,28.66,-17.92,59.0,90.0,6.93
rikitea,US,53.91,40.6,-124.16,93.0,90.0,5.82
los llanos de aridane,PH,79.95,17.08,122.42,64.0,2.0,3.71
fortuna,ZA,57.99,-33.59,26.89,74.0,13.0,5.55
dicabisagan,NC,86.52,-22.28,166.46,62.0,90.0,9.17
port alfred,AR,58.68,-38.0,-57.56,71.0,0.0,4.7
noumea,TZ,81.1,-7.91,39.67,81.0,56.0,8.08
mar del plata,ID,78.8,-0.03,109.33,94.0,40.0,3.11
kilindoni,CA,16.07,50.63,-96.99,97.0,73.0,1.7
pontianak,RU,5.94,52.42,136.49,87.0,82.0,3.96
gimli,JP,41.05,35.13,140.3,93.0,75.0,24.16
taolanaro,GL,12.2,60.92,-46.05,61.0,80.0,8.05
imeni poliny osipenko,CN,43.79,28.96,118.87,84.0,100.0,1.07
grand river south east,FO,33.8,62.23,-6.59,86.0,63.0,2.24
katsuura,CN,25.45,40.28,97.2,40.0,0.0,4.45
narsaq,TL,83.08,-8.93,125.41,61.0,100.0,5.12
quzhou,NZ,66.99,-46.19,168.86,52.0,67.0,5.99
vaitupu,NZ,66.99,-46.6,168.33,52.0,97.0,5.99
klaksvik,MX,77.0,20.22,-87.47,78.0,20.0,3.36
yumen,RU,49.51,44.04,39.15,58.0,89.0,7.99
airai,MU,70.99,-20.01,57.66,88.0,40.0,5.82
mataura,MZ,69.6,-24.53,32.98,85.0,98.0,6.76
bluff,PT,57.88,32.67,-17.1,67.0,20.0,6.93
tulum,RU,17.67,59.58,151.28,94.0,100.0,3.27
shepsi,RU,-23.1,71.92,114.08,95.0,7.0,4.27
grand gaube,US,73.85,19.73,-155.09,57.0,40.0,10.29
chokwe,RU,-24.14,71.69,128.87,89.0,100.0,5.14
ponta do sol,AU,87.22,-33.65,115.33,23.0,0.0,10.83
ola,BR,80.78,-8.76,-35.1,80.0,37.0,10.8
saskylakh,VN,78.53,13.77,109.23,71.0,33.0,1.48
hilo,AU,71.24,-42.78,147.06,36.0,20.0,17.22
tiksi,KI,84.47,3.07,172.79,78.0,95.0,23.11
busselton,BB,78.8,13.22,-59.52,69.0,2.0,10.29
tamandare,RE,65.95,-21.36,55.77,68.0,26.0,9.17
qui nhon,GL,28.4,65.61,-37.64,54.0,100.0,3.36
mys shmidta,AU,89.1,-32.58,151.78,58.0,75.0,9.17
belushya guba,GF,78.8,4.93,-52.33,88.0,90.0,3.36
new norfolk,CA,33.96,47.67,-52.73,91.0,90.0,14.29
butaritari,RU,-15.5,58.38,58.32,99.0,99.0,4.07
bathsheba,OM,62.6,17.02,54.09,29.0,0.0,16.11
saint-philippe,MX,76.37,20.51,-86.95,78.0,20.0,3.36
tasiilaq,CL,59.47,-37.62,-73.65,86.0,88.0,6.62
clarence town,CN,35.47,33.23,105.02,55.0,61.0,1.12
cayenne,ZA,58.98,-33.93,18.42,87.0,28.0,9.17
torbay,PH,76.98,17.42,121.44,72.0,3.0,6.69
gornozavodsk,RO,33.91,46.43,26.4,86.0,47.0,3.58
salalah,JP,39.27,40.5,141.5,64.0,75.0,19.46
cozumel,US,47.95,45.52,-122.68,93.0,90.0,4.7
lebu,BR,74.3,-30.18,-50.21,77.0,77.0,12.68
moba,LR,77.0,5.88,-10.05,94.0,40.0,1.45
cape town,US,32.27,42.6,-73.97,100.0,90.0,6.93
tabuk,CL,48.11,-53.15,-70.92,76.0,40.0,17.22
barentsburg,TO,84.2,-21.2,-175.2,83.0,40.0,2.24
asau,JP,64.8,26.12,127.67,63.0,75.0,14.99
hachinohe,MY,80.33,5.41,100.34,88.0,20.0,6.93
portland,RU,-15.7,71.97,102.5,91.0,0.0,8.01
cidreira,CA,-22.0,69.45,-133.04,67.0,40.0,12.75
buchanan,CN,12.42,42.8,93.45,73.0,24.0,1.7
albany,PT,55.8,40.16,-8.33,100.0,75.0,9.17
illoqqortoormiut,US,38.95,41.37,-73.41,87.0,90.0,13.87
cheuskiny,CF,61.16,4.95,23.92,37.0,0.0,2.91
punta arenas,AR,67.71,-34.61,-58.38,60.0,20.0,12.75
vaini,RU,-21.78,70.63,147.92,97.0,100.0,8.5
itoman,BR,77.09,-2.6,-43.46,91.0,70.0,3.83
georgetown,IS,40.55,63.44,-20.27,67.0,81.0,23.71
khatanga,RU,-15.68,63.46,48.9,99.0,7.0,3.36
tuktoyaktuk,IS,17.6,66.04,-17.34,85.0,100.0,12.75
hami,GL,-15.12,72.79,-56.15,94.0,100.0,4.79
lata,RU,27.52,51.15,37.89,97.0,80.0,5.97
bethel,CU,71.6,20.25,-76.54,88.0,0.0,3.36
rafai,FR,45.72,43.12,5.8,87.0,41.0,3.36
buenos aires,ET,64.4,5.78,36.57,91.0,96.0,2.98
chokurdakh,CN,42.6,26.89,112.61,64.0,0.0,4.27
sumbawa,LY,52.79,29.13,15.95,76.0,0.0,1.43
humberto de campos,PK,65.52,24.14,67.45,54.0,0.0,11.65
vestmannaeyjar,RU,3.72,68.05,39.51,99.0,68.0,6.15
koslan,LY,61.18,30.76,20.23,77.0,0.0,14.45
husavik,LV,32.23,56.62,25.73,96.0,98.0,4.14
upernavik,CO,82.4,10.56,-73.01,69.0,75.0,11.41
novikovo,MM,64.04,20.15,92.9,58.0,0.0,6.76
guisa,AU,82.08,-34.58,150.86,65.0,75.0,4.7
sanary-sur-mer,AO,80.6,-8.84,13.23,83.0,40.0,8.81
longlac,GN,67.93,11.67,-9.5,11.0,89.0,2.68
bako,ID,71.82,-2.08,101.38,83.0,100.0,1.97
hengyang,PG,84.33,-2.02,147.27,78.0,97.0,12.57
hun,IT,44.53,36.72,15.09,93.0,2.0,2.24
keti bandar,AO,66.11,-11.55,20.78,94.0,100.0,4.61
ostrovnoy,BO,75.2,-17.12,-63.23,94.0,90.0,8.05
ajdabiya,NC,79.74,-20.23,164.02,79.0,100.0,19.1
plavinas,UY,60.3,-33.7,-53.46,76.0,0.0,4.99
urumita,AR,73.4,-26.82,-65.22,83.0,90.0,3.36
akyab,PT,64.4,38.52,-28.7,93.0,75.0,14.99
flinders,CA,-22.0,70.47,-68.59,67.0,1.0,10.29
luanda,UY,51.66,-34.48,-54.33,83.0,0.0,1.61
siguiri,BR,86.0,-9.97,-67.81,74.0,40.0,4.7
sungaipenuh,CI,82.04,4.75,-6.64,80.0,41.0,11.74
lorengau,CL,64.85,-25.4,-70.48,89.0,0.0,2.98
pachino,RU,-12.95,68.75,161.3,92.0,100.0,7.83
dzhusaly,US,49.32,33.96,-116.5,60.0,1.0,4.45
lumeje,AU,80.6,-20.73,139.5,78.0,90.0,13.87
mineros,ES,51.84,41.08,1.14,62.0,49.0,6.93
poum,ZA,57.2,-33.92,25.57,76.0,33.0,1.12
chuy,ZA,54.63,-34.42,19.23,96.0,10.0,7.16
tucuman,BR,76.71,-22.97,-42.03,89.0,24.0,18.34
ribeira grande,MA,54.09,29.58,-9.5,35.0,100.0,4.5
clyde river,AU,79.29,-30.52,151.65,60.0,86.0,6.06
rocha,RU,-30.12,66.77,123.37,87.0,6.0,8.12
rio branco,CA,17.83,62.46,-114.35,92.0,90.0,3.36
san-pedro,ID,74.35,-3.75,103.64,91.0,100.0,2.01
taltal,CA,10.4,55.74,-97.86,92.0,90.0,3.36
cherskiy,AU,86.5,-24.85,152.35,62.0,75.0,13.87
desert hot springs,US,46.6,37.1,-113.58,48.0,1.0,8.05
mount isa,AU,89.6,-12.23,136.77,70.0,75.0,14.99
sedelnikovo,RU,7.74,63.05,179.32,87.0,51.0,10.49
salou,US,42.8,55.34,-131.65,70.0,90.0,3.36
port elizabeth,LY,56.39,29.03,21.55,27.0,26.0,5.39
kemijarvi,US,78.4,22.08,-159.32,65.0,1.0,8.05
hermanus,IS,38.52,64.25,-15.21,69.0,0.0,9.15
arraial do cabo,VE,80.6,7.77,-72.22,69.0,40.0,2.24
tiznit,PH,80.04,13.78,124.39,78.0,5.0,7.87
armidale,US,57.06,38.42,-121.42,67.0,1.0,8.05
zhigansk,NZ,66.99,-46.13,167.68,52.0,100.0,5.99
yellowknife,RU,-11.22,73.51,80.55,96.0,90.0,4.76
payo,PE,70.84,-10.07,-78.15,77.0,100.0,4.29
thompson,MX,61.32,27.98,-114.06,76.0,0.0,5.23
bundaberg,BR,73.8,-11.32,-38.23,94.0,99.0,5.97
saint george,SB,87.8,-9.43,159.95,74.0,75.0,8.05
grazhdanskoye pervoye,US,77.34,20.89,-156.47,54.0,20.0,5.82
nhulunbuy,ZA,61.83,-33.01,17.94,82.0,43.0,16.82
beringovskiy,AR,76.82,-34.62,-68.33,50.0,84.0,18.16
ketchikan,GM,73.4,13.2,-16.73,73.0,0.0,5.82
jalu,CA,-18.4,65.28,-126.83,68.0,75.0,4.7
kapaa,BR,80.6,-7.26,-34.91,83.0,86.0,9.17
hofn,ID,87.42,-6.88,112.21,66.0,38.0,1.83
san cristobal,ID,88.32,-3.8,102.27,56.0,78.0,0.6
gigmoto,GL,20.03,60.14,-45.24,71.0,0.0,21.32
laguna,TZ,61.07,-5.7,34.48,98.0,100.0,5.12
tuatapere,AR,52.92,-38.55,-58.74,81.0,0.0,4.0
dikson,NZ,64.81,-45.42,167.72,58.0,100.0,5.97
huarmey,BR,77.0,-5.13,-49.33,100.0,100.0,3.36
guerrero negro,ZA,60.35,-34.05,23.37,71.0,0.0,3.83
tsihombe,PL,32.0,53.86,21.31,94.0,90.0,3.36
itapicuru,MU,70.79,-20.34,57.76,88.0,40.0,5.82
honiara,MX,78.8,19.22,-104.7,69.0,5.0,11.41
kahului,RU,-2.78,59.65,67.41,95.0,100.0,9.8
saldanha,ID,82.29,-7.38,108.21,69.0,80.0,3.87
san rafael,AU,84.7,-20.74,116.85,76.0,25.0,10.42
gunjur,MX,73.4,18.73,-103.68,56.0,5.0,6.06
norman wells,IS,33.04,63.84,-22.43,79.0,75.0,16.11
conde,EC,66.88,-1.7,-77.93,88.0,100.0,3.13
labuhan,JP,64.4,33.73,135.98,59.0,40.0,12.75
bengkulu,MU,70.75,-20.41,57.7,88.0,40.0,5.82
nanortalik,ID,79.95,-0.95,100.35,72.0,100.0,1.52
itigi,ID,84.06,-9.11,124.89,70.0,94.0,5.53
necochea,BR,78.12,-11.09,-43.14,73.0,97.0,2.59
buariki,ML,71.08,18.9,-3.53,11.0,21.0,8.75
te anau,US,-20.2,71.29,-156.79,68.0,90.0,6.93
nizhneyansk,BW,67.3,-24.0,21.75,21.0,0.0,3.89
itupiranga,MG,66.2,-19.38,47.42,93.0,40.0,5.82
plettenberg bay,US,54.36,37.77,-122.42,87.0,1.0,4.7
mragowo,RU,28.47,50.68,156.12,88.0,100.0,7.25
bambous virieux,RU,21.83,61.37,35.37,69.0,100.0,22.5
san patricio,HK,51.21,22.29,114.16,62.0,40.0,10.29
kondinskoye,CN,33.01,41.76,86.15,86.0,0.0,1.01
kawalu,RU,35.6,54.67,20.13,100.0,90.0,8.95
karratha,RU,-3.15,65.85,74.49,96.0,100.0,15.01
coahuayana,AR,61.11,-38.37,-60.28,37.0,33.0,15.26
phan rang,NA,61.23,-22.96,14.51,82.0,0.0,2.24
grindavik,AR,69.48,-31.42,-64.5,63.0,76.0,6.93
palora,MG,73.89,-13.2,49.05,89.0,100.0,5.03
shingu,CA,14.86,49.5,-98.0,100.0,90.0,1.19
mahebourg,PG,83.26,-2.67,141.3,78.0,100.0,13.58
padang,KZ,19.4,49.78,72.96,92.0,75.0,26.84
atambua,CK,77.0,-21.21,-159.78,94.0,100.0,7.85
barra,IN,74.01,16.23,77.8,63.0,100.0,7.87
araouane,RU,3.09,61.15,149.63,94.0,100.0,4.16
barrow,BR,77.0,-7.64,-35.55,83.0,40.0,16.11
hukuntsi,NZ,68.0,-46.28,169.85,63.0,44.0,8.9
ambatolampy,JP,53.15,34.88,136.58,81.0,75.0,5.82
san francisco,US,43.57,32.35,-85.2,93.0,1.0,5.23
kamenskoye,VU,87.8,-19.55,169.27,62.0,40.0,11.41
severo-kurilsk,AU,75.2,-24.87,113.63,100.0,40.0,14.99
sheltozero,AU,79.32,-21.15,149.2,83.0,40.0,5.82
victoria,EG,46.4,26.77,31.5,52.0,82.0,6.93
korla,PE,82.4,-3.75,-73.25,83.0,22.0,2.24
svetlyy,NZ,69.8,-35.17,173.17,81.0,0.0,11.72
jabiru,CA,-18.51,66.15,-65.71,59.0,94.0,3.0
pangody,NC,77.68,-22.67,167.48,81.0,68.0,16.04
tres arroyos,BR,75.11,-20.33,-40.29,94.0,75.0,4.05
walvis bay,RU,18.72,60.38,92.63,94.0,100.0,7.85
villa carlos paz,AU,80.6,-28.77,114.6,65.0,0.0,11.41
ambilobe,RU,9.82,52.7,115.17,72.0,0.0,1.72
carman,RU,-23.24,67.45,153.68,92.0,100.0,6.33
vanimo,KZ,27.19,47.47,84.87,86.0,100.0,2.8
aktas,CA,30.54,44.3,-78.56,92.0,90.0,8.05
avarua,US,54.12,37.46,-122.43,87.0,1.0,4.7
gadwal,CD,71.6,-0.22,20.87,46.0,91.0,1.99
ust-omchug,PT,55.74,40.12,-8.25,100.0,75.0,9.17
natuba,FR,42.67,48.58,-4.0,76.0,100.0,19.46
kaitangata,CL,60.8,-41.87,-73.82,93.0,90.0,10.29
suzuka,CL,63.27,-40.32,-72.97,82.0,100.0,1.39
russell,SO,75.4,9.49,50.81,71.0,42.0,27.09
isangel,TR,35.56,41.25,32.69,78.0,98.0,4.68
carnarvon,RU,-13.36,65.37,64.67,89.0,95.0,7.09
mackay,IR,32.2,29.45,55.68,58.0,0.0,2.84
tahta,RU,-0.81,53.75,127.27,87.0,98.0,3.94
iquitos,PE,73.98,-4.27,-81.21,71.0,100.0,3.71
ahipara,KR,45.07,37.57,126.98,49.0,90.0,4.7
pangnirtung,NP,55.33,28.23,83.98,53.0,0.0,2.08
vao,PH,86.18,10.67,122.95,60.0,0.0,5.77
vila velha,JP,62.6,28.37,129.48,72.0,75.0,11.41
teya,AU,93.2,-33.87,121.9,28.0,0.0,21.92
geraldton,CL,73.4,-20.22,-70.14,78.0,75.0,8.05
verkh-usugli,RU,7.05,62.55,155.55,97.0,100.0,4.68
srednekolymsk,KZ,18.19,42.95,72.76,89.0,22.0,3.15
zaysan,RU,-19.57,61.47,128.92,93.0,97.0,3.8
omemee,US,6.01,60.55,-151.26,77.0,90.0,5.82
half moon bay,IN,77.59,11.67,92.75,56.0,100.0,13.42
boende,AU,73.8,-34.73,135.87,49.0,76.0,8.23
eldikan,CA,23.0,54.15,-115.69,79.0,75.0,3.65
lousa,PE,71.33,-13.7,-76.22,88.0,40.0,12.75
morlaix,NZ,68.0,-45.87,170.5,63.0,71.0,8.48
ancud,ZA,65.41,-33.02,27.91,74.0,100.0,5.84
rio bueno,MG,64.15,-17.02,48.58,94.0,79.0,1.41
bandarbeyla,IT,29.55,46.62,10.7,100.0,90.0,4.7
palabuhanratu,CA,1.22,63.75,-68.51,84.0,90.0,8.05
safranbolu,RU,-4.0,65.61,72.68,95.0,100.0,16.46
muzhi,MX,66.2,20.67,-103.33,41.0,5.0,5.82
sirjan,BR,73.8,-11.66,-38.02,94.0,99.0,5.97
zeya,US,17.6,57.79,-152.41,61.0,75.0,8.05
el alto,CF,67.21,8.41,20.65,20.0,6.0,6.6
seoul,KI,78.8,1.33,172.98,94.0,90.0,4.7
pokhara,ZA,69.69,-28.78,32.04,78.0,67.0,7.16
bacolod,MX,72.88,27.08,-101.53,32.0,0.0,3.29
naze,AU,102.15,-20.78,117.13,22.0,2.0,4.29
esperance,PW,84.2,7.04,134.26,74.0,75.0,10.29
iquique,CN,23.07,42.27,118.96,55.0,100.0,9.26
dukat,RU,8.19,60.34,102.28,92.0,100.0,5.39
lugovoy,MX,72.97,17.96,-102.2,79.0,0.0,2.62
mokhsogollokh,JP,24.8,43.32,145.57,53.0,0.0,4.7
kenai,RE,66.02,-21.34,55.48,68.0,1.0,9.17
port blair,AU,84.04,-32.5,137.77,64.0,0.0,17.22
port lincoln,BR,69.76,-16.43,-41.0,97.0,100.0,2.15
whitecourt,RU,11.19,50.72,136.63,86.0,0.0,3.71
pisco,MY,78.01,6.2,102.17,88.0,20.0,3.36
dunedin,RU,-22.14,62.1,126.7,96.0,86.0,1.92
east london,BR,76.26,-21.64,-41.05,90.0,100.0,13.98
andilamena,ZA,53.47,-34.53,20.04,82.0,30.0,1.12
lasa,US,37.4,57.05,-135.33,74.0,75.0,11.41
iqaluit,MZ,78.98,-12.97,40.52,87.0,100.0,12.21
staryy nadym,GL,12.2,60.72,-46.03,61.0,62.0,8.05
guadalajara,CA,34.0,47.6,-53.26,94.0,90.0,8.88
acajutiba,DJ,77.0,11.5,42.5,83.0,20.0,3.36
sentyabrskiy,LT,32.04,55.08,22.77,93.0,44.0,7.07
kodiak,US,61.75,34.15,-119.2,67.0,1.0,5.7
ndele,RU,-0.4,64.38,-173.3,77.0,75.0,6.71
bairiki,BR,75.54,-2.9,-40.84,94.0,88.0,2.06
richards bay,MX,55.58,22.27,-101.97,38.0,0.0,7.34
san buenaventura,ID,87.26,-7.94,110.25,63.0,16.0,0.09
roebourne,BR,76.33,-14.8,-57.29,86.0,82.0,2.01
kloulklubed,MY,78.49,1.55,110.33,94.0,75.0,2.24
chifeng,RU,0.01,60.42,134.53,95.0,100.0,2.04
amderma,NU,86.0,-19.06,-169.92,74.0,20.0,9.17
vanavara,PF,83.16,-16.48,-151.75,73.0,66.0,10.45
lazaro cardenas,RU,0.23,52.59,58.32,88.0,38.0,9.64
nemuro,US,31.96,41.3,-96.17,80.0,90.0,4.7
saint-pierre,IQ,46.98,33.64,42.83,81.0,74.0,1.28
port augusta,LR,77.0,6.3,-10.8,94.0,40.0,4.76
jequitinhonha,IN,61.39,25.32,84.27,64.0,35.0,4.45
solnechnyy,AU,86.0,-35.34,143.55,23.0,69.0,8.01
tumpat,BR,71.6,-18.59,-48.7,83.0,20.0,4.7
berdigestyakh,IQ,39.2,33.34,44.4,93.0,62.0,3.36
sao joao da barra,RU,8.89,52.35,115.52,74.0,0.0,2.93
bredasdorp,RU,-16.58,61.4,47.5,99.0,12.0,3.56
sitka,RU,29.71,51.34,34.63,90.0,100.0,6.17
pemba,MU,70.75,-20.52,57.52,88.0,40.0,5.82
qaqortoq,DE,43.0,54.91,8.3,94.0,100.0,5.01
bay roberts,CN,59.0,20.01,110.35,82.0,75.0,11.18
marcona,NZ,68.0,-45.75,170.57,63.0,71.0,8.48
jibuti,TR,44.6,41.19,40.99,56.0,90.0,16.11
jurbarkas,JP,32.22,42.97,140.51,87.0,92.0,5.84
port hueneme,NZ,71.01,-44.49,171.21,61.0,100.0,5.99
provideniya,IN,68.0,24.12,79.6,43.0,88.0,10.6
camocim,AO,76.21,-15.2,12.15,80.0,100.0,5.73
loreto,IR,41.0,30.6,50.24,100.0,90.0,5.82
srandakan,CZ,29.91,49.21,16.79,100.0,90.0,5.82
nova olimpia,US,27.18,37.47,-105.87,58.0,40.0,12.75
kuching,MX,69.28,22.89,-109.91,68.0,40.0,6.93
ust-maya,RU,9.95,61.67,96.37,92.0,100.0,2.33
alofi,ZA,49.03,-31.98,27.04,94.0,63.0,2.28
faanui,SO,76.6,5.35,48.53,75.0,100.0,19.69
baymak,CV,74.19,14.9,-24.5,55.0,73.0,17.29
douglas,PE,74.61,-4.58,-81.27,86.0,82.0,7.05
hit,BR,75.29,-3.28,-39.27,91.0,68.0,0.4
monrovia,MY,86.0,5.97,116.07,74.0,75.0,2.24
koath,GL,-1.28,66.94,-53.67,93.0,100.0,6.29
swan hill,CV,73.4,14.92,-23.51,60.0,67.0,17.22
tupaciguara,TZ,63.88,-5.1,30.39,88.0,100.0,2.59
baghdad,US,50.94,32.79,-79.86,81.0,1.0,7.14
vershino-darasunskiy,TD,65.35,8.34,17.77,20.0,32.0,3.29
kharitonovo,MG,70.75,-22.9,44.53,93.0,0.0,1.72
glushkovo,RU,-1.88,52.0,127.7,90.0,0.0,6.15
sorvag,AU,62.89,-38.27,141.97,82.0,17.0,17.02
souillac,IN,59.99,27.92,96.17,38.0,0.0,2.44
westerland,RU,27.48,46.49,135.88,74.0,5.0,1.77
qiongshan,CA,32.38,45.51,-73.59,94.0,90.0,6.93
waitati,RU,-0.11,69.7,170.31,87.0,100.0,2.39
ardesen,RU,-16.19,61.33,46.92,99.0,29.0,2.95
iwanai,CU,73.4,22.49,-79.55,78.0,20.0,3.36
pareora,CO,80.15,4.95,-77.37,80.0,78.0,6.44
hatta,PT,62.6,37.72,-25.43,100.0,75.0,19.46
namibe,US,32.68,39.18,-84.53,82.0,90.0,3.91
behbahan,DO,76.05,19.58,-70.98,88.0,75.0,4.7
pozorice,IN,73.4,8.43,78.02,94.0,20.0,3.36
alamosa,US,58.82,29.89,-81.31,67.0,90.0,4.23
cabo san lucas,CL,55.4,-45.58,-72.07,82.0,40.0,3.36
baykit,MX,72.97,17.98,-102.23,79.0,0.0,2.62
ilinge,ID,86.77,-7.75,112.01,65.0,21.0,4.76
hobyo,KE,84.02,3.12,35.6,52.0,100.0,9.15
sao filipe,GL,6.8,69.22,-51.1,60.0,90.0,6.93
talara,CA,23.0,48.14,-80.04,85.0,90.0,11.41
trairi,BR,80.46,-18.59,-39.73,83.0,100.0,11.63
kota kinabalu,BR,74.8,-2.99,-65.11,95.0,18.0,2.53
sisimiut,US,48.36,30.51,-87.21,93.0,1.0,4.7
praya,PH,83.05,11.0,122.67,72.0,60.0,7.18
uvinza,US,54.57,29.6,-90.72,76.0,90.0,3.24
mount pleasant,PT,63.46,39.05,-27.98,95.0,100.0,11.9
moissala,MV,81.55,-0.6,73.08,79.0,100.0,15.03
sakaraha,CN,63.63,18.8,110.4,87.0,100.0,8.75
shimanovsk,NO,11.91,71.04,27.85,79.0,62.0,8.05
codrington,SA,42.8,17.49,44.13,48.0,5.0,1.81
tezu,AU,83.08,-35.35,150.47,65.0,75.0,4.7
vostok,LR,76.64,4.38,-7.72,90.0,16.0,1.52
burica,IN,69.8,17.65,83.27,100.0,40.0,2.24
montreal,US,40.96,40.93,-74.02,60.0,90.0,8.59
pevek,NE,59.4,14.97,8.89,11.0,17.0,9.86
solvychegodsk,LY,56.17,27.04,14.43,35.0,71.0,11.92
remedios,US,30.4,42.25,-75.83,86.0,90.0,8.05
pizarro,RU,-7.02,54.82,54.0,100.0,96.0,7.9
paradwip,MY,80.98,2.43,103.84,79.0,81.0,6.46
vila franca do campo,AU,73.4,-37.83,140.77,46.0,82.0,9.17
hamilton,IN,80.83,10.57,72.64,61.0,100.0,4.63
esperanza,AR,78.98,-33.3,-66.34,36.0,0.0,16.06
udankudi,AU,98.6,-25.24,130.99,13.0,0.0,17.22
saint augustine,RU,43.34,45.21,36.72,93.0,20.0,11.18
coihaique,CA,-23.8,68.22,-135.01,67.0,90.0,12.75
ijaki,YT,78.8,-12.91,45.19,94.0,32.0,1.12
la orilla,US,31.08,44.15,-87.57,80.0,90.0,4.7
gondanglegi,PG,83.89,-3.67,152.43,77.0,21.0,14.7
lodwar,GB,38.03,51.03,-4.22,86.0,20.0,12.75
ilulissat,JP,64.78,26.18,127.76,63.0,75.0,14.99
kirkland lake,BR,74.52,-22.77,-52.98,71.0,90.0,3.94
conceicao da barra,CN,46.6,24.42,111.52,62.0,11.0,4.45
uarini,AU,77.5,-20.02,148.23,94.0,75.0,8.05
ferry pass,VN,74.57,13.08,109.3,83.0,98.0,9.98
dingle,GR,42.8,38.95,20.75,100.0,40.0,5.82
houma,NA,60.15,-28.55,16.43,86.0,48.0,9.06
lagoa,KE,76.17,-0.45,39.64,86.0,100.0,5.5
hithadhoo,BR,77.32,-6.66,-69.87,84.0,100.0,2.39
wanning,NZ,74.14,-41.41,175.52,65.0,100.0,16.11
mehamn,UA,33.12,50.37,33.26,85.0,100.0,5.3
najran,SB,84.13,-8.1,156.84,72.0,58.0,7.52
ulladulla,BR,77.0,-9.67,-35.74,88.0,20.0,4.7
harper,US,60.28,34.64,-120.46,44.0,1.0,6.93
umzimvubu,US,57.78,30.19,-82.64,67.0,90.0,3.36
yarada,MX,71.37,17.52,-91.97,92.0,4.0,1.54
new milford,AR,69.6,-40.81,-63.0,33.0,84.0,23.04
tanout,CN,53.01,27.9,102.26,37.0,99.0,3.06
sabha,MG,78.8,-16.1,46.63,94.0,40.0,2.24
broome,IN,70.27,20.13,84.38,49.0,0.0,2.21
sharan,PF,86.0,-17.73,-149.15,66.0,75.0,4.7
mersing,CA,14.0,55.1,-105.28,85.0,90.0,2.24
mount gambier,US,30.2,44.37,-100.35,86.0,90.0,3.51
kavaratti,RU,-12.06,65.58,-171.0,72.0,0.0,2.71
san luis,RU,18.99,49.0,132.47,77.0,0.0,1.97
yulara,ES,49.71,43.57,-7.25,9.0,70.0,1.01
taman,JP,44.67,35.73,140.83,100.0,75.0,8.05
cicarlau,MR,68.43,20.5,-10.07,27.0,0.0,11.74
aklavik,CN,37.0,47.52,122.88,78.0,29.0,15.01
attawapiskat,ID,84.22,-9.66,120.26,73.0,83.0,2.93
bandrele,KZ,20.68,46.84,74.98,88.0,100.0,18.19
two rivers,ES,42.08,42.25,-2.5,100.0,75.0,6.62
namatanai,CO,77.0,12.58,-81.7,73.0,20.0,2.24
northam,CO,80.6,-3.77,-70.38,100.0,75.0,2.24
nishihara,JP,51.8,32.69,128.84,87.0,75.0,12.75
nova londrina,RU,-4.05,60.12,64.78,95.0,100.0,8.59
babu,KR,48.2,35.24,129.21,76.0,75.0,11.41
bowen,TM,33.21,39.51,54.37,72.0,0.0,4.23
tuy hoa,AR,72.91,-43.3,-65.1,41.0,68.0,19.01
preveza,UA,32.67,48.72,33.07,86.0,100.0,5.06
oranjemund,YE,47.5,14.4,46.47,37.0,0.0,2.93
garissa,US,40.33,39.41,-74.36,60.0,90.0,5.82
eirunepe,PK,52.93,26.0,63.04,27.0,0.0,21.79
waipawa,SL,73.78,7.62,-11.83,95.0,69.0,1.57
saleaula,AR,77.14,-42.77,-65.04,17.0,10.0,15.21
lokhvytsya,RU,23.97,59.78,30.82,85.0,90.0,6.71
katsiveli,NG,59.16,12.45,10.04,15.0,5.0,9.01
fort saint john,RU,13.21,54.37,81.9,93.0,46.0,11.39
inderborskiy,MX,76.51,20.7,-105.2,69.0,75.0,4.7
gizo,RU,-23.53,63.28,118.33,93.0,0.0,3.13
maceio,IL,47.23,31.61,34.76,93.0,100.0,2.24
lompoc,CA,26.6,54.27,-110.73,92.0,90.0,2.48
lake city,GL,6.8,68.82,-51.19,60.0,90.0,6.93
temaraia,CA,9.05,60.75,-137.51,93.0,68.0,7.45
palenque,IT,28.38,46.46,10.35,92.0,75.0,3.36
viedma,CL,58.46,-35.33,-72.42,87.0,0.0,8.75
xichang,GT,61.59,14.76,-90.99,82.0,40.0,9.17
marovoay,BR,74.25,-1.83,-44.87,98.0,100.0,0.96
udayagiri,NE,68.45,14.32,2.09,7.0,100.0,11.79
manzil tamim,DO,77.59,18.21,-71.1,74.0,1.0,6.33
tautira,US,62.47,28.15,-80.59,82.0,90.0,5.93
la ronge,US,21.92,45.02,-93.22,100.0,90.0,4.7
pierre,VN,75.2,11.92,109.16,94.0,20.0,1.12
lavrentiya,IT,41.88,40.38,17.36,87.0,0.0,4.7
bira,RU,0.84,68.05,166.44,85.0,100.0,2.64
foz,NA,69.8,-17.93,19.77,60.0,62.0,6.93
hasaki,BR,80.28,-17.71,-39.25,88.0,100.0,14.12
mizpe ramon,RU,9.64,53.72,46.07,87.0,100.0,4.43
adrar,RU,16.63,60.47,166.1,92.0,100.0,6.69
nianzishan,EC,56.77,-4.07,-78.96,97.0,100.0,4.09
waingapu,CA,44.6,50.7,-127.42,81.0,75.0,26.4
balkhash,FR,54.28,42.0,8.92,93.0,100.0,9.17
la rioja,CL,61.83,-33.04,-71.63,88.0,0.0,4.7
san andres,RU,4.23,65.83,31.17,88.0,100.0,4.83
puerto narino,ID,82.51,-6.69,111.45,75.0,5.0,2.17
fukue,GL,12.09,64.18,-51.72,78.0,90.0,4.7
uray,CN,12.2,40.81,111.65,85.0,100.0,4.47
kijang,HT,79.29,18.2,-73.75,61.0,0.0,3.36
balkanabat,GY,72.5,8.2,-59.78,99.0,67.0,2.33
rawson,CN,45.72,28.85,121.12,57.0,47.0,6.38
pryyutivka,US,51.1,39.15,-123.21,76.0,90.0,5.82
marzuq,ML,70.02,20.2,1.01,10.0,66.0,8.84
brigantine,US,40.57,41.14,-73.36,56.0,90.0,6.93
turbat,RU,6.89,64.48,76.69,94.0,100.0,16.04
mattru,PE,68.07,-15.43,-74.62,91.0,99.0,5.08
puerto madryn,AU,88.72,-33.37,116.15,23.0,0.0,6.22
otradnoye,BR,70.68,-15.92,-46.11,94.0,100.0,3.0
hadejia,RU,11.98,56.58,41.87,89.0,100.0,6.49
ordynskoye,JP,41.29,34.98,139.87,93.0,75.0,13.87
ixtapa,DE,37.4,48.58,12.17,93.0,40.0,4.7
gopichettipalaiyam,FR,50.31,45.63,-1.03,87.0,67.0,13.87
nyurba,TR,41.0,40.91,37.68,56.0,75.0,5.82
gat,TZ,66.31,-6.72,36.37,97.0,89.0,0.4
bonnyville,RU,22.23,55.75,38.0,85.0,90.0,11.18
qasigiannguit,ID,81.34,5.89,95.32,74.0,78.0,13.87
haines junction,PL,34.18,52.88,18.69,93.0,100.0,9.17
oga,RU,2.43,67.47,78.7,95.0,100.0,12.41
constitucion,CA,14.0,49.75,-77.63,100.0,90.0,11.41
tecpan,NO,36.99,60.39,5.33,100.0,40.0,23.04
cururupu,BR,74.57,-2.63,-56.74,94.0,82.0,3.33
jujuy,CO,77.23,3.87,-67.92,83.0,64.0,1.77
ouallam,CN,21.11,36.62,101.77,32.0,29.0,4.32
barahona,GD,77.0,12.06,-61.75,83.0,27.0,5.82
indian harbour beach,IL,54.28,29.56,34.95,31.0,100.0,6.06
saint anthony,US,40.06,36.88,-89.59,93.0,40.0,5.82
cam ranh,NP,38.08,27.37,87.2,60.0,0.0,2.13
pulsano,NZ,78.57,-35.1,173.78,61.0,1.0,8.99
bilibino,RU,-16.42,65.44,52.15,98.0,95.0,0.31
rundu,TC,76.39,21.46,-71.14,76.0,25.0,10.16
caravelas,ES,50.81,43.67,-7.41,9.0,77.0,1.01
nikolsk,TW,62.6,22.76,121.14,88.0,90.0,5.82
tilichiki,AU,95.0,-23.7,133.88,20.0,0.0,18.34
zamora,CL,63.52,-28.57,-70.76,74.0,0.0,1.59
port hardy,CL,66.2,-29.95,-71.34,82.0,40.0,6.93
ajaccio,RU,5.0,69.49,88.4,77.0,40.0,13.42
valparaiso,GR,46.98,36.82,21.7,93.0,2.0,3.36
grand centre,KZ,24.87,43.17,70.47,85.0,99.0,12.48
pyaozerskiy,CN,10.4,43.8,87.6,92.0,75.0,6.71
lasem,CA,18.46,51.23,-58.65,90.0,100.0,23.17
nuuk,BR,80.6,-5.2,-35.46,83.0,20.0,6.93
hohhot,MY,80.37,1.24,111.46,94.0,75.0,2.57
les cayes,BR,76.59,-2.92,-39.92,90.0,100.0,3.44
mabaruma,ID,84.51,-3.33,128.92,71.0,0.0,8.32
linhai,AU,93.2,-15.77,128.73,52.0,48.0,10.29
ukiah,JP,31.5,42.47,140.87,73.0,100.0,9.6
tessalit,IR,35.6,33.6,56.92,64.0,0.0,2.24
westport,GB,37.71,58.43,-3.08,69.0,97.0,11.41
purpe,FO,33.8,62.16,-7.17,86.0,72.0,2.24
acari,US,34.18,42.33,-83.33,92.0,90.0,4.7
collie,AU,86.25,-28.87,153.57,70.0,75.0,14.99
arinos,CA,21.72,46.7,-75.45,95.0,93.0,4.9
kholuy,US,-24.11,64.84,-147.72,74.0,75.0,2.98
tateyama,US,44.24,36.68,-101.48,72.0,75.0,16.11
ergolding,ZM,66.11,-15.83,27.78,74.0,85.0,4.34
azrow,IN,64.45,23.25,82.55,43.0,72.0,5.1
royan,US,47.68,33.67,-95.58,93.0,1.0,4.7
ordu,PL,32.34,52.2,18.64,94.0,100.0,1.01
kibakwe,US,46.99,33.19,-82.53,87.0,1.0,8.05
zheleznodorozhnyy,CA,39.2,54.32,-130.32,86.0,90.0,5.82
sabang,PK,51.8,32.64,73.72,93.0,75.0,6.93
aleksandrow kujawski,RU,1.96,64.7,43.39,98.0,100.0,6.42
tazovskiy,SE,35.82,58.41,15.62,100.0,99.0,8.05
matagami,US,50.74,34.88,-76.9,76.0,90.0,5.82
bergen,CN,9.37,47.26,132.03,87.0,0.0,3.31
parintins,ID,84.43,0.8,127.4,70.0,63.0,5.55
inirida,RU,28.69,42.43,130.64,64.0,100.0,3.0
xining,GH,74.39,5.26,-0.76,95.0,15.0,2.19
saint-georges,BO,75.2,-17.8,-63.17,94.0,90.0,8.05
elat,US,63.07,28.71,-81.21,42.0,90.0,4.7
sikeston,IQ,44.73,34.48,41.91,80.0,46.0,1.68
khandbari,RU,15.85,52.03,80.38,86.0,26.0,12.44
kaeo,VG,76.32,18.42,-64.62,88.0,20.0,4.61
ust-tsilma,AU,82.67,-19.25,146.8,83.0,75.0,5.82
cockburn town,MX,37.99,30.48,-115.95,21.0,0.0,7.0
cervo,FI,27.54,62.43,22.18,92.0,90.0,9.17
taitung,AR,78.8,-45.87,-67.5,39.0,100.0,19.46
alice springs,EC,76.64,-0.9,-89.6,86.0,31.0,6.98
vallenar,MX,68.4,23.45,-110.22,68.0,40.0,6.93
coquimbo,CN,12.63,50.57,123.72,76.0,0.0,2.08
talnakh,LY,52.18,31.67,20.25,90.0,0.0,8.46
methoni,UA,23.0,47.98,35.91,100.0,90.0,4.47
karatau,AU,87.82,-32.72,152.15,58.0,75.0,9.17
urumqi,AR,67.62,-34.65,-58.62,63.0,0.0,9.17
saint-augustin,PH,82.0,8.0,124.29,84.0,25.0,5.01
touros,RU,-0.29,49.76,129.52,92.0,43.0,7.45
sri aman,UG,71.08,0.21,32.52,79.0,100.0,11.21
itarema,IN,60.39,26.27,82.07,64.0,26.0,6.17
amahai,HN,76.51,15.8,-85.97,77.0,72.0,5.44
kununurra,ES,46.6,40.66,-3.77,93.0,75.0,16.11
ozgon,PG,85.06,-2.57,150.8,73.0,6.0,10.16
date,MX,75.09,21.23,-86.73,88.0,40.0,6.93
tabas,RU,-32.28,69.3,139.9,69.0,18.0,6.44
wick,SA,62.2,21.43,39.83,26.0,0.0,1.25
vestmanna,CD,74.39,-4.05,19.53,57.0,99.0,1.1
satitoa,MZ,77.05,-23.86,35.38,75.0,76.0,19.3
garden city,UG,76.44,3.66,31.72,38.0,100.0,2.68
ballina,SE,41.05,57.64,18.3,93.0,100.0,9.17
ferme-neuve,MR,64.4,20.93,-17.03,68.0,0.0,18.34
fairbanks,ZM,66.83,-9.35,28.73,94.0,99.0,4.7
guymon,RU,-15.97,62.71,56.2,96.0,31.0,4.85
nakambala,RU,15.84,55.65,109.32,74.0,0.0,12.5
baikunthpur,TO,84.2,-19.8,-174.35,79.0,40.0,5.82
lamar,SA,37.4,26.33,43.98,69.0,0.0,4.63
kolo,IR,27.03,36.42,54.98,47.0,0.0,0.87
avera,JP,47.23,35.55,133.23,93.0,75.0,2.24
prince rupert,BR,73.24,-19.39,-40.07,97.0,100.0,5.57
dinga,VU,78.8,-13.88,167.55,94.0,90.0,13.18
pinega,ZA,61.3,-30.65,24.01,29.0,82.0,3.53
linkoping,GF,74.23,5.66,-53.78,98.0,100.0,2.28
havelock,GH,69.13,10.79,-0.85,11.0,67.0,9.4
fujin,GA,82.67,-0.72,8.78,76.0,3.0,7.07
ternate,RU,17.78,61.95,159.23,90.0,100.0,6.69
galiwinku,CI,69.04,9.6,-5.2,12.0,79.0,4.5
hunza,IT,41.92,44.95,12.32,93.0,75.0,4.7
khasan,ML,72.07,12.28,-10.97,11.0,100.0,1.86
mumford,AU,71.87,-38.6,145.59,70.0,100.0,7.27
santa cruz,BR,64.0,-24.79,-50.01,96.0,47.0,3.49
seminole,SS,64.89,4.92,29.47,28.0,77.0,2.66
rawah,GH,75.96,4.87,-2.24,91.0,3.0,1.48
volchikha,SA,41.0,29.97,40.21,44.0,76.0,6.93
road town,JP,54.0,33.36,129.55,87.0,75.0,18.34
townsville,RU,-3.46,58.13,68.59,97.0,98.0,5.7
meyungs,US,78.93,21.39,-158.15,57.0,20.0,10.29
san quintin,CN,13.62,47.87,88.12,82.0,100.0,1.86
kauhajoki,RU,32.0,47.69,40.1,95.0,90.0,4.47
comodoro rivadavia,BR,74.68,-22.3,-53.27,77.0,16.0,2.46
puerto baquerizo moreno,TH,50.0,19.3,97.97,93.0,0.0,2.33
todos santos,US,36.57,35.53,-108.74,55.0,1.0,11.41
alihe,PG,84.94,-6.22,155.63,71.0,15.0,5.95
suluq,IN,72.79,18.65,79.67,71.0,100.0,12.73
novomykolayivka,ZM,65.52,-14.97,22.68,94.0,33.0,4.81
nelson bay,SJ,3.2,78.22,15.64,71.0,89.0,3.76
moron,FI,3.2,65.97,29.18,84.0,90.0,9.17
marawi,AX,39.2,60.1,19.93,100.0,90.0,12.75
shirokiy,CF,58.08,10.28,22.79,19.0,0.0,9.17
kajansi,PE,75.2,-12.12,-77.05,83.0,75.0,16.11
sultanpur,BO,74.17,-14.32,-67.38,98.0,100.0,4.43
la brea,IE,39.34,52.1,-9.78,68.0,100.0,22.32
colmenar viejo,PT,62.6,37.73,-25.67,100.0,75.0,20.8
kavieng,SR,73.44,4.75,-55.17,95.0,97.0,3.8
isla mujeres,CA,22.75,54.72,-113.29,85.0,100.0,5.5
deputatskiy,CM,63.97,2.93,11.98,94.0,0.0,2.8
mecca,NO,13.62,69.65,18.96,72.0,94.0,4.7
mangai,CD,54.5,-1.68,29.22,85.0,89.0,0.63
inhambane,ZA,55.4,-34.04,23.05,87.0,0.0,4.7
moyo,BR,80.6,-6.98,-34.83,83.0,95.0,9.17
visby,RU,-1.68,66.84,32.36,96.0,61.0,3.67
privokzalnyy,MG,69.03,-14.27,50.17,85.0,30.0,2.26
nouadhibou,BR,70.77,-20.1,-42.45,93.0,100.0,1.41
nchelenge,BR,80.78,-8.9,-35.15,80.0,37.0,10.8
troitsko-pechorsk,RU,27.91,59.24,163.07,91.0,89.0,6.17
severobaykalsk,NO,21.79,70.37,31.11,66.0,100.0,8.23
pangai,PH,83.05,6.21,124.19,72.0,8.0,2.64
buraydah,GB,33.3,55.76,-4.86,97.0,100.0,2.24
shahrud,NA,68.13,-17.47,16.33,86.0,65.0,4.99
sakaiminato,MM,62.94,22.93,97.75,42.0,0.0,1.43
